header: 
  seq: 9334
  stamp: 
    secs: 1638714663
    nsecs: 397718102
  frame_id: "imu_link"
orientation: 
  x: 0.0178557022765
  y: 0.0049182696849
  z: 0.961408010395
  w: 0.274502499201
orientation_covariance: [0.0, 0.0, 0.0, 0.0, 0.0, 0.0, 0.0, 0.0, 0.0]
angular_velocity: 
  x: 0.0
  y: 0.0031957933081
  z: 0.0
angular_velocity_covariance: [0.0, 0.0, 0.0, 0.0, 0.0, 0.0, 0.0, 0.0, 0.0]
linear_acceleration: 
  x: 0.29189453125
  y: 0.19619140625
  z: 9.80478515625
linear_acceleration_covariance: [0.0, 0.0, 0.0, 0.0, 0.0, 0.0, 0.0, 0.0, 0.0]
---
header: 
  seq: 9335
  stamp: 
    secs: 1638714663
    nsecs: 497717146
  frame_id: "imu_link"
orientation: 
  x: 0.0178098557283
  y: 0.00493058878478
  z: 0.961395451581
  w: 0.274549237865
orientation_covariance: [0.0, 0.0, 0.0, 0.0, 0.0, 0.0, 0.0, 0.0, 0.0]
angular_velocity: 
  x: 0.0
  y: 0.0
  z: 0.0
angular_velocity_covariance: [0.0, 0.0, 0.0, 0.0, 0.0, 0.0, 0.0, 0.0, 0.0]
linear_acceleration: 
  x: 0.30625
  y: 0.19619140625
  z: 9.8095703125
linear_acceleration_covariance: [0.0, 0.0, 0.0, 0.0, 0.0, 0.0, 0.0, 0.0, 0.0]
---
header: 
  seq: 9336
  stamp: 
    secs: 1638714663
    nsecs: 597715712
  frame_id: "imu_link"
orientation: 
  x: 0.0177964605002
  y: 0.00488535557463
  z: 0.961408846809
  w: 0.274504004655
orientation_covariance: [0.0, 0.0, 0.0, 0.0, 0.0, 0.0, 0.0, 0.0, 0.0]
angular_velocity: 
  x: 0.0
  y: 0.00106526443603
  z: 0.0
angular_velocity_covariance: [0.0, 0.0, 0.0, 0.0, 0.0, 0.0, 0.0, 0.0, 0.0]
linear_acceleration: 
  x: 0.30625
  y: 0.17705078125
  z: 9.80478515625
linear_acceleration_covariance: [0.0, 0.0, 0.0, 0.0, 0.0, 0.0, 0.0, 0.0, 0.0]
---
header: 
  seq: 9337
  stamp: 
    secs: 1638714663
    nsecs: 697714579
  frame_id: "imu_link"
orientation: 
  x: 0.0178098557283
  y: 0.00493058878478
  z: 0.961395451581
  w: 0.274549237865
orientation_covariance: [0.0, 0.0, 0.0, 0.0, 0.0, 0.0, 0.0, 0.0, 0.0]
angular_velocity: 
  x: 0.0
  y: 0.0031957933081
  z: 0.0
angular_velocity_covariance: [0.0, 0.0, 0.0, 0.0, 0.0, 0.0, 0.0, 0.0, 0.0]
linear_acceleration: 
  x: 0.31103515625
  y: 0.1818359375
  z: 9.80478515625
linear_acceleration_covariance: [0.0, 0.0, 0.0, 0.0, 0.0, 0.0, 0.0, 0.0, 0.0]
---
header: 
  seq: 9338
  stamp: 
    secs: 1638714663
    nsecs: 787685468
  frame_id: "imu_link"
orientation: 
  x: 0.0178098557283
  y: 0.00493058878478
  z: 0.961395451581
  w: 0.274549237865
orientation_covariance: [0.0, 0.0, 0.0, 0.0, 0.0, 0.0, 0.0, 0.0, 0.0]
angular_velocity: 
  x: 0.0
  y: 0.0
  z: 0.0
angular_velocity_covariance: [0.0, 0.0, 0.0, 0.0, 0.0, 0.0, 0.0, 0.0, 0.0]
linear_acceleration: 
  x: 0.31103515625
  y: 0.18662109375
  z: 9.819140625
linear_acceleration_covariance: [0.0, 0.0, 0.0, 0.0, 0.0, 0.0, 0.0, 0.0, 0.0]
---
header: 
  seq: 9339
  stamp: 
    secs: 1638714663
    nsecs: 797719648
  frame_id: "imu_link"
orientation: 
  x: 0.0178096193507
  y: 0.00493144252838
  z: 0.961408611516
  w: 0.274503151232
orientation_covariance: [0.0, 0.0, 0.0, 0.0, 0.0, 0.0, 0.0, 0.0, 0.0]
angular_velocity: 
  x: 0.0
  y: 0.0
  z: 0.0
angular_velocity_covariance: [0.0, 0.0, 0.0, 0.0, 0.0, 0.0, 0.0, 0.0, 0.0]
linear_acceleration: 
  x: 0.31103515625
  y: 0.18662109375
  z: 9.819140625
linear_acceleration_covariance: [0.0, 0.0, 0.0, 0.0, 0.0, 0.0, 0.0, 0.0, 0.0]
---
header: 
  seq: 9340
  stamp: 
    secs: 1638714663
    nsecs: 887682000
  frame_id: "imu_link"
orientation: 
  x: 0.0178096193507
  y: 0.00493144252838
  z: 0.961408611516
  w: 0.274503151232
orientation_covariance: [0.0, 0.0, 0.0, 0.0, 0.0, 0.0, 0.0, 0.0, 0.0]
angular_velocity: 
  x: 0.0
  y: 0.0
  z: 0.0
angular_velocity_covariance: [0.0, 0.0, 0.0, 0.0, 0.0, 0.0, 0.0, 0.0, 0.0]
linear_acceleration: 
  x: 0.30146484375
  y: 0.19619140625
  z: 9.81435546875
linear_acceleration_covariance: [0.0, 0.0, 0.0, 0.0, 0.0, 0.0, 0.0, 0.0, 0.0]
---
header: 
  seq: 9341
  stamp: 
    secs: 1638714663
    nsecs: 897715959
  frame_id: "imu_link"
orientation: 
  x: 0.0178098557283
  y: 0.00493058878478
  z: 0.961395451581
  w: 0.274549237865
orientation_covariance: [0.0, 0.0, 0.0, 0.0, 0.0, 0.0, 0.0, 0.0, 0.0]
angular_velocity: 
  x: 0.0
  y: 0.0
  z: 0.0
angular_velocity_covariance: [0.0, 0.0, 0.0, 0.0, 0.0, 0.0, 0.0, 0.0, 0.0]
linear_acceleration: 
  x: 0.30146484375
  y: 0.19619140625
  z: 9.81435546875
linear_acceleration_covariance: [0.0, 0.0, 0.0, 0.0, 0.0, 0.0, 0.0, 0.0, 0.0]
---
header: 
  seq: 9342
  stamp: 
    secs: 1638714663
    nsecs: 987749468
  frame_id: "imu_link"
orientation: 
  x: 0.0178098557283
  y: 0.00493058878478
  z: 0.961395451581
  w: 0.274549237865
orientation_covariance: [0.0, 0.0, 0.0, 0.0, 0.0, 0.0, 0.0, 0.0, 0.0]
angular_velocity: 
  x: 0.0
  y: 0.00106526443603
  z: 0.0
angular_velocity_covariance: [0.0, 0.0, 0.0, 0.0, 0.0, 0.0, 0.0, 0.0, 0.0]
linear_acceleration: 
  x: 0.31103515625
  y: 0.18662109375
  z: 9.81435546875
linear_acceleration_covariance: [0.0, 0.0, 0.0, 0.0, 0.0, 0.0, 0.0, 0.0, 0.0]
---
header: 
  seq: 9343
  stamp: 
    secs: 1638714663
    nsecs: 997722388
  frame_id: "imu_link"
orientation: 
  x: 0.0177964605002
  y: 0.00488535557463
  z: 0.961408846809
  w: 0.274504004655
orientation_covariance: [0.0, 0.0, 0.0, 0.0, 0.0, 0.0, 0.0, 0.0, 0.0]
angular_velocity: 
  x: 0.0
  y: 0.00106526443603
  z: 0.0
angular_velocity_covariance: [0.0, 0.0, 0.0, 0.0, 0.0, 0.0, 0.0, 0.0, 0.0]
linear_acceleration: 
  x: 0.31103515625
  y: 0.18662109375
  z: 9.81435546875
linear_acceleration_covariance: [0.0, 0.0, 0.0, 0.0, 0.0, 0.0, 0.0, 0.0, 0.0]
---
header: 
  seq: 9344
  stamp: 
    secs: 1638714664
    nsecs:  87615576
  frame_id: "imu_link"
orientation: 
  x: 0.0177964605002
  y: 0.00488535557463
  z: 0.961408846809
  w: 0.274504004655
orientation_covariance: [0.0, 0.0, 0.0, 0.0, 0.0, 0.0, 0.0, 0.0, 0.0]
angular_velocity: 
  x: 0.0
  y: 0.0
  z: 0.0
angular_velocity_covariance: [0.0, 0.0, 0.0, 0.0, 0.0, 0.0, 0.0, 0.0, 0.0]
linear_acceleration: 
  x: 0.3158203125
  y: 0.1818359375
  z: 9.78564453125
linear_acceleration_covariance: [0.0, 0.0, 0.0, 0.0, 0.0, 0.0, 0.0, 0.0, 0.0]
---
header: 
  seq: 9345
  stamp: 
    secs: 1638714664
    nsecs:  97609790
  frame_id: "imu_link"
orientation: 
  x: 0.0178883934268
  y: 0.00485986745383
  z: 0.961420798799
  w: 0.274456617163
orientation_covariance: [0.0, 0.0, 0.0, 0.0, 0.0, 0.0, 0.0, 0.0, 0.0]
angular_velocity: 
  x: 0.0
  y: 0.0
  z: 0.0
angular_velocity_covariance: [0.0, 0.0, 0.0, 0.0, 0.0, 0.0, 0.0, 0.0, 0.0]
linear_acceleration: 
  x: 0.3158203125
  y: 0.1818359375
  z: 9.78564453125
linear_acceleration_covariance: [0.0, 0.0, 0.0, 0.0, 0.0, 0.0, 0.0, 0.0, 0.0]
---
header: 
  seq: 9346
  stamp: 
    secs: 1638714664
    nsecs: 187612114
  frame_id: "imu_link"
orientation: 
  x: 0.0178883934268
  y: 0.00485986745383
  z: 0.961420798799
  w: 0.274456617163
orientation_covariance: [0.0, 0.0, 0.0, 0.0, 0.0, 0.0, 0.0, 0.0, 0.0]
angular_velocity: 
  x: 0.0
  y: 0.0
  z: 0.0
angular_velocity_covariance: [0.0, 0.0, 0.0, 0.0, 0.0, 0.0, 0.0, 0.0, 0.0]
linear_acceleration: 
  x: 0.30146484375
  y: 0.20576171875
  z: 9.8095703125
linear_acceleration_covariance: [0.0, 0.0, 0.0, 0.0, 0.0, 0.0, 0.0, 0.0, 0.0]
---
header: 
  seq: 9347
  stamp: 
    secs: 1638714664
    nsecs: 197672989
  frame_id: "imu_link"
orientation: 
  x: 0.017947398915
  y: 0.00489364467187
  z: 0.961433114579
  w: 0.274409018263
orientation_covariance: [0.0, 0.0, 0.0, 0.0, 0.0, 0.0, 0.0, 0.0, 0.0]
angular_velocity: 
  x: 0.0
  y: 0.0
  z: 0.0
angular_velocity_covariance: [0.0, 0.0, 0.0, 0.0, 0.0, 0.0, 0.0, 0.0, 0.0]
linear_acceleration: 
  x: 0.30146484375
  y: 0.20576171875
  z: 9.8095703125
linear_acceleration_covariance: [0.0, 0.0, 0.0, 0.0, 0.0, 0.0, 0.0, 0.0, 0.0]
---
header: 
  seq: 9348
  stamp: 
    secs: 1638714664
    nsecs: 287648433
  frame_id: "imu_link"
orientation: 
  x: 0.017947398915
  y: 0.00489364467187
  z: 0.961433114579
  w: 0.274409018263
orientation_covariance: [0.0, 0.0, 0.0, 0.0, 0.0, 0.0, 0.0, 0.0, 0.0]
angular_velocity: 
  x: 0.0
  y: 0.00426105774413
  z: 0.0
angular_velocity_covariance: [0.0, 0.0, 0.0, 0.0, 0.0, 0.0, 0.0, 0.0, 0.0]
linear_acceleration: 
  x: 0.30625
  y: 0.1818359375
  z: 9.80478515625
linear_acceleration_covariance: [0.0, 0.0, 0.0, 0.0, 0.0, 0.0, 0.0, 0.0, 0.0]
---
header: 
  seq: 9349
  stamp: 
    secs: 1638714664
    nsecs: 297757369
  frame_id: "imu_link"
orientation: 
  x: 0.0178423098794
  y: 0.00487303807059
  z: 0.961421402792
  w: 0.274457267587
orientation_covariance: [0.0, 0.0, 0.0, 0.0, 0.0, 0.0, 0.0, 0.0, 0.0]
angular_velocity: 
  x: 0.0
  y: 0.00426105774413
  z: 0.0
angular_velocity_covariance: [0.0, 0.0, 0.0, 0.0, 0.0, 0.0, 0.0, 0.0, 0.0]
linear_acceleration: 
  x: 0.30625
  y: 0.1818359375
  z: 9.80478515625
linear_acceleration_covariance: [0.0, 0.0, 0.0, 0.0, 0.0, 0.0, 0.0, 0.0, 0.0]
---
header: 
  seq: 9350
  stamp: 
    secs: 1638714664
    nsecs: 387649154
  frame_id: "imu_link"
orientation: 
  x: 0.0178423098794
  y: 0.00487303807059
  z: 0.961421402792
  w: 0.274457267587
orientation_covariance: [0.0, 0.0, 0.0, 0.0, 0.0, 0.0, 0.0, 0.0, 0.0]
angular_velocity: 
  x: 0.0
  y: -0.00106526443603
  z: 0.0
angular_velocity_covariance: [0.0, 0.0, 0.0, 0.0, 0.0, 0.0, 0.0, 0.0, 0.0]
linear_acceleration: 
  x: 0.30146484375
  y: 0.17705078125
  z: 9.8095703125
linear_acceleration_covariance: [0.0, 0.0, 0.0, 0.0, 0.0, 0.0, 0.0, 0.0, 0.0]
---
header: 
  seq: 9351
  stamp: 
    secs: 1638714664
    nsecs: 397755671
  frame_id: "imu_link"
orientation: 
  x: 0.0178559380225
  y: 0.00491741373224
  z: 0.961394850492
  w: 0.274548585805
orientation_covariance: [0.0, 0.0, 0.0, 0.0, 0.0, 0.0, 0.0, 0.0, 0.0]
angular_velocity: 
  x: 0.0
  y: -0.00106526443603
  z: 0.0
angular_velocity_covariance: [0.0, 0.0, 0.0, 0.0, 0.0, 0.0, 0.0, 0.0, 0.0]
linear_acceleration: 
  x: 0.30146484375
  y: 0.17705078125
  z: 9.8095703125
linear_acceleration_covariance: [0.0, 0.0, 0.0, 0.0, 0.0, 0.0, 0.0, 0.0, 0.0]
---
header: 
  seq: 9352
  stamp: 
    secs: 1638714664
    nsecs: 487661806
  frame_id: "imu_link"
orientation: 
  x: 0.0178559380225
  y: 0.00491741373224
  z: 0.961394850492
  w: 0.274548585805
orientation_covariance: [0.0, 0.0, 0.0, 0.0, 0.0, 0.0, 0.0, 0.0, 0.0]
angular_velocity: 
  x: 0.00106526443603
  y: 0.00106526443603
  z: 0.0
angular_velocity_covariance: [0.0, 0.0, 0.0, 0.0, 0.0, 0.0, 0.0, 0.0, 0.0]
linear_acceleration: 
  x: 0.31103515625
  y: 0.1818359375
  z: 9.84306640625
linear_acceleration_covariance: [0.0, 0.0, 0.0, 0.0, 0.0, 0.0, 0.0, 0.0, 0.0]
---
header: 
  seq: 9353
  stamp: 
    secs: 1638714664
    nsecs: 497642246
  frame_id: "imu_link"
orientation: 
  x: 0.0179022553492
  y: 0.00490338049542
  z: 0.961381085112
  w: 0.274594019059
orientation_covariance: [0.0, 0.0, 0.0, 0.0, 0.0, 0.0, 0.0, 0.0, 0.0]
angular_velocity: 
  x: 0.00106526443603
  y: 0.00106526443603
  z: 0.0
angular_velocity_covariance: [0.0, 0.0, 0.0, 0.0, 0.0, 0.0, 0.0, 0.0, 0.0]
linear_acceleration: 
  x: 0.31103515625
  y: 0.1818359375
  z: 9.84306640625
linear_acceleration_covariance: [0.0, 0.0, 0.0, 0.0, 0.0, 0.0, 0.0, 0.0, 0.0]
---
header: 
  seq: 9354
  stamp: 
    secs: 1638714664
    nsecs: 587628896
  frame_id: "imu_link"
orientation: 
  x: 0.0179022553492
  y: 0.00490338049542
  z: 0.961381085112
  w: 0.274594019059
orientation_covariance: [0.0, 0.0, 0.0, 0.0, 0.0, 0.0, 0.0, 0.0, 0.0]
angular_velocity: 
  x: -0.00106526443603
  y: 0.0
  z: 0.0
angular_velocity_covariance: [0.0, 0.0, 0.0, 0.0, 0.0, 0.0, 0.0, 0.0, 0.0]
linear_acceleration: 
  x: 0.31103515625
  y: 0.210546875
  z: 9.78564453125
linear_acceleration_covariance: [0.0, 0.0, 0.0, 0.0, 0.0, 0.0, 0.0, 0.0, 0.0]
---
header: 
  seq: 9355
  stamp: 
    secs: 1638714664
    nsecs: 597637194
  frame_id: "imu_link"
orientation: 
  x: 0.0179017851612
  y: 0.00490509683012
  z: 0.961407407065
  w: 0.27450184654
orientation_covariance: [0.0, 0.0, 0.0, 0.0, 0.0, 0.0, 0.0, 0.0, 0.0]
angular_velocity: 
  x: -0.00106526443603
  y: 0.0
  z: 0.0
angular_velocity_covariance: [0.0, 0.0, 0.0, 0.0, 0.0, 0.0, 0.0, 0.0, 0.0]
linear_acceleration: 
  x: 0.31103515625
  y: 0.210546875
  z: 9.78564453125
linear_acceleration_covariance: [0.0, 0.0, 0.0, 0.0, 0.0, 0.0, 0.0, 0.0, 0.0]
---
header: 
  seq: 9356
  stamp: 
    secs: 1638714664
    nsecs: 687670851
  frame_id: "imu_link"
orientation: 
  x: 0.0179017851612
  y: 0.00490509683012
  z: 0.961407407065
  w: 0.27450184654
orientation_covariance: [0.0, 0.0, 0.0, 0.0, 0.0, 0.0, 0.0, 0.0, 0.0]
angular_velocity: 
  x: 0.0
  y: 0.0
  z: 0.0
angular_velocity_covariance: [0.0, 0.0, 0.0, 0.0, 0.0, 0.0, 0.0, 0.0, 0.0]
linear_acceleration: 
  x: 0.30146484375
  y: 0.172265625
  z: 9.8287109375
linear_acceleration_covariance: [0.0, 0.0, 0.0, 0.0, 0.0, 0.0, 0.0, 0.0, 0.0]
---
header: 
  seq: 9357
  stamp: 
    secs: 1638714664
    nsecs: 697624131
  frame_id: "imu_link"
orientation: 
  x: 0.017947398915
  y: 0.00489364467187
  z: 0.961433114579
  w: 0.274409018263
orientation_covariance: [0.0, 0.0, 0.0, 0.0, 0.0, 0.0, 0.0, 0.0, 0.0]
angular_velocity: 
  x: 0.0
  y: 0.0
  z: 0.0
angular_velocity_covariance: [0.0, 0.0, 0.0, 0.0, 0.0, 0.0, 0.0, 0.0, 0.0]
linear_acceleration: 
  x: 0.30146484375
  y: 0.172265625
  z: 9.8287109375
linear_acceleration_covariance: [0.0, 0.0, 0.0, 0.0, 0.0, 0.0, 0.0, 0.0, 0.0]
---
header: 
  seq: 9358
  stamp: 
    secs: 1638714664
    nsecs: 787629672
  frame_id: "imu_link"
orientation: 
  x: 0.0179344769331
  y: 0.00484669682591
  z: 0.961420192597
  w: 0.274455966109
orientation_covariance: [0.0, 0.0, 0.0, 0.0, 0.0, 0.0, 0.0, 0.0, 0.0]
angular_velocity: 
  x: 0.0
  y: 0.00532632218016
  z: 0.0
angular_velocity_covariance: [0.0, 0.0, 0.0, 0.0, 0.0, 0.0, 0.0, 0.0, 0.0]
linear_acceleration: 
  x: 0.32060546875
  y: 0.19619140625
  z: 9.79521484375
linear_acceleration_covariance: [0.0, 0.0, 0.0, 0.0, 0.0, 0.0, 0.0, 0.0, 0.0]
---
header: 
  seq: 9359
  stamp: 
    secs: 1638714664
    nsecs: 797620555
  frame_id: "imu_link"
orientation: 
  x: 0.0179344769331
  y: 0.00484669682591
  z: 0.961420192597
  w: 0.274455966109
orientation_covariance: [0.0, 0.0, 0.0, 0.0, 0.0, 0.0, 0.0, 0.0, 0.0]
angular_velocity: 
  x: 0.0
  y: 0.00532632218016
  z: 0.0
angular_velocity_covariance: [0.0, 0.0, 0.0, 0.0, 0.0, 0.0, 0.0, 0.0, 0.0]
linear_acceleration: 
  x: 0.32060546875
  y: 0.19619140625
  z: 9.79521484375
linear_acceleration_covariance: [0.0, 0.0, 0.0, 0.0, 0.0, 0.0, 0.0, 0.0, 0.0]
---
header: 
  seq: 9360
  stamp: 
    secs: 1638714664
    nsecs: 887650207
  frame_id: "imu_link"
orientation: 
  x: 0.0179340121794
  y: 0.00484841625007
  z: 0.961446501315
  w: 0.274363789841
orientation_covariance: [0.0, 0.0, 0.0, 0.0, 0.0, 0.0, 0.0, 0.0, 0.0]
angular_velocity: 
  x: 0.0
  y: -0.00106526443603
  z: 0.0
angular_velocity_covariance: [0.0, 0.0, 0.0, 0.0, 0.0, 0.0, 0.0, 0.0, 0.0]
linear_acceleration: 
  x: 0.31103515625
  y: 0.1818359375
  z: 9.8095703125
linear_acceleration_covariance: [0.0, 0.0, 0.0, 0.0, 0.0, 0.0, 0.0, 0.0, 0.0]
---
header: 
  seq: 9361
  stamp: 
    secs: 1638714664
    nsecs: 897657655
  frame_id: "imu_link"
orientation: 
  x: 0.0179340121794
  y: 0.00484841625007
  z: 0.961446501315
  w: 0.274363789841
orientation_covariance: [0.0, 0.0, 0.0, 0.0, 0.0, 0.0, 0.0, 0.0, 0.0]
angular_velocity: 
  x: 0.0
  y: -0.00106526443603
  z: 0.0
angular_velocity_covariance: [0.0, 0.0, 0.0, 0.0, 0.0, 0.0, 0.0, 0.0, 0.0]
linear_acceleration: 
  x: 0.31103515625
  y: 0.1818359375
  z: 9.8095703125
linear_acceleration_covariance: [0.0, 0.0, 0.0, 0.0, 0.0, 0.0, 0.0, 0.0, 0.0]
---
header: 
  seq: 9362
  stamp: 
    secs: 1638714664
    nsecs: 987662904
  frame_id: "imu_link"
orientation: 
  x: 0.0179469296602
  y: 0.0048953653347
  z: 0.961459418796
  w: 0.274316840757
orientation_covariance: [0.0, 0.0, 0.0, 0.0, 0.0, 0.0, 0.0, 0.0, 0.0]
angular_velocity: 
  x: 0.0
  y: 0.0
  z: 0.0
angular_velocity_covariance: [0.0, 0.0, 0.0, 0.0, 0.0, 0.0, 0.0, 0.0, 0.0]
linear_acceleration: 
  x: 0.31103515625
  y: 0.19140625
  z: 9.819140625
linear_acceleration_covariance: [0.0, 0.0, 0.0, 0.0, 0.0, 0.0, 0.0, 0.0, 0.0]
---
header: 
  seq: 9363
  stamp: 
    secs: 1638714664
    nsecs: 997658906
  frame_id: "imu_link"
orientation: 
  x: 0.0179469296602
  y: 0.0048953653347
  z: 0.961459418796
  w: 0.274316840757
orientation_covariance: [0.0, 0.0, 0.0, 0.0, 0.0, 0.0, 0.0, 0.0, 0.0]
angular_velocity: 
  x: 0.0
  y: 0.0
  z: 0.0
angular_velocity_covariance: [0.0, 0.0, 0.0, 0.0, 0.0, 0.0, 0.0, 0.0, 0.0]
linear_acceleration: 
  x: 0.31103515625
  y: 0.19140625
  z: 9.819140625
linear_acceleration_covariance: [0.0, 0.0, 0.0, 0.0, 0.0, 0.0, 0.0, 0.0, 0.0]
---
header: 
  seq: 9364
  stamp: 
    secs: 1638714665
    nsecs:  87610865
  frame_id: "imu_link"
orientation: 
  x: 0.0179344769331
  y: 0.00484669682591
  z: 0.961420192597
  w: 0.274455966109
orientation_covariance: [0.0, 0.0, 0.0, 0.0, 0.0, 0.0, 0.0, 0.0, 0.0]
angular_velocity: 
  x: 0.0
  y: 0.0
  z: 0.0
angular_velocity_covariance: [0.0, 0.0, 0.0, 0.0, 0.0, 0.0, 0.0, 0.0, 0.0]
linear_acceleration: 
  x: 0.31103515625
  y: 0.1818359375
  z: 9.8095703125
linear_acceleration_covariance: [0.0, 0.0, 0.0, 0.0, 0.0, 0.0, 0.0, 0.0, 0.0]
---
header: 
  seq: 9365
  stamp: 
    secs: 1638714665
    nsecs:  97764651
  frame_id: "imu_link"
orientation: 
  x: 0.0179344769331
  y: 0.00484669682591
  z: 0.961420192597
  w: 0.274455966109
orientation_covariance: [0.0, 0.0, 0.0, 0.0, 0.0, 0.0, 0.0, 0.0, 0.0]
angular_velocity: 
  x: 0.0
  y: 0.0
  z: 0.0
angular_velocity_covariance: [0.0, 0.0, 0.0, 0.0, 0.0, 0.0, 0.0, 0.0, 0.0]
linear_acceleration: 
  x: 0.31103515625
  y: 0.1818359375
  z: 9.8095703125
linear_acceleration_covariance: [0.0, 0.0, 0.0, 0.0, 0.0, 0.0, 0.0, 0.0, 0.0]
---
header: 
  seq: 9366
  stamp: 
    secs: 1638714665
    nsecs: 187665160
  frame_id: "imu_link"
orientation: 
  x: 0.0179347092481
  y: 0.00484583709712
  z: 0.961407034925
  w: 0.274502053297
orientation_covariance: [0.0, 0.0, 0.0, 0.0, 0.0, 0.0, 0.0, 0.0, 0.0]
angular_velocity: 
  x: 0.0
  y: 0.0
  z: 0.0
angular_velocity_covariance: [0.0, 0.0, 0.0, 0.0, 0.0, 0.0, 0.0, 0.0, 0.0]
linear_acceleration: 
  x: 0.31103515625
  y: 0.18662109375
  z: 9.82392578125
linear_acceleration_covariance: [0.0, 0.0, 0.0, 0.0, 0.0, 0.0, 0.0, 0.0, 0.0]
---
header: 
  seq: 9367
  stamp: 
    secs: 1638714665
    nsecs: 197645834
  frame_id: "imu_link"
orientation: 
  x: 0.0179347092481
  y: 0.00484583709712
  z: 0.961407034925
  w: 0.274502053297
orientation_covariance: [0.0, 0.0, 0.0, 0.0, 0.0, 0.0, 0.0, 0.0, 0.0]
angular_velocity: 
  x: 0.0
  y: 0.0
  z: 0.0
angular_velocity_covariance: [0.0, 0.0, 0.0, 0.0, 0.0, 0.0, 0.0, 0.0, 0.0]
linear_acceleration: 
  x: 0.31103515625
  y: 0.18662109375
  z: 9.82392578125
linear_acceleration_covariance: [0.0, 0.0, 0.0, 0.0, 0.0, 0.0, 0.0, 0.0, 0.0]
---
header: 
  seq: 9368
  stamp: 
    secs: 1638714665
    nsecs: 287665217
  frame_id: "imu_link"
orientation: 
  x: 0.0179347092481
  y: 0.00484583709712
  z: 0.961407034925
  w: 0.274502053297
orientation_covariance: [0.0, 0.0, 0.0, 0.0, 0.0, 0.0, 0.0, 0.0, 0.0]
angular_velocity: 
  x: 0.0
  y: 0.0
  z: 0.0
angular_velocity_covariance: [0.0, 0.0, 0.0, 0.0, 0.0, 0.0, 0.0, 0.0, 0.0]
linear_acceleration: 
  x: 0.325390625
  y: 0.19619140625
  z: 9.80478515625
linear_acceleration_covariance: [0.0, 0.0, 0.0, 0.0, 0.0, 0.0, 0.0, 0.0, 0.0]
---
header: 
  seq: 9369
  stamp: 
    secs: 1638714665
    nsecs: 297680217
  frame_id: "imu_link"
orientation: 
  x: 0.0179347092481
  y: 0.00484583709712
  z: 0.961407034925
  w: 0.274502053297
orientation_covariance: [0.0, 0.0, 0.0, 0.0, 0.0, 0.0, 0.0, 0.0, 0.0]
angular_velocity: 
  x: 0.0
  y: 0.0
  z: 0.0
angular_velocity_covariance: [0.0, 0.0, 0.0, 0.0, 0.0, 0.0, 0.0, 0.0, 0.0]
linear_acceleration: 
  x: 0.325390625
  y: 0.19619140625
  z: 9.80478515625
linear_acceleration_covariance: [0.0, 0.0, 0.0, 0.0, 0.0, 0.0, 0.0, 0.0, 0.0]
---
header: 
  seq: 9370
  stamp: 
    secs: 1638714665
    nsecs: 387673770
  frame_id: "imu_link"
orientation: 
  x: 0.0179476334805
  y: 0.00489278432359
  z: 0.961419959157
  w: 0.27445510607
orientation_covariance: [0.0, 0.0, 0.0, 0.0, 0.0, 0.0, 0.0, 0.0, 0.0]
angular_velocity: 
  x: 0.0
  y: 0.0
  z: 0.0
angular_velocity_covariance: [0.0, 0.0, 0.0, 0.0, 0.0, 0.0, 0.0, 0.0, 0.0]
linear_acceleration: 
  x: 0.3158203125
  y: 0.17705078125
  z: 9.81435546875
linear_acceleration_covariance: [0.0, 0.0, 0.0, 0.0, 0.0, 0.0, 0.0, 0.0, 0.0]
---
header: 
  seq: 9371
  stamp: 
    secs: 1638714665
    nsecs: 397645452
  frame_id: "imu_link"
orientation: 
  x: 0.0179476334805
  y: 0.00489278432359
  z: 0.961419959157
  w: 0.27445510607
orientation_covariance: [0.0, 0.0, 0.0, 0.0, 0.0, 0.0, 0.0, 0.0, 0.0]
angular_velocity: 
  x: 0.0
  y: 0.0
  z: 0.0
angular_velocity_covariance: [0.0, 0.0, 0.0, 0.0, 0.0, 0.0, 0.0, 0.0, 0.0]
linear_acceleration: 
  x: 0.3158203125
  y: 0.17705078125
  z: 9.81435546875
linear_acceleration_covariance: [0.0, 0.0, 0.0, 0.0, 0.0, 0.0, 0.0, 0.0, 0.0]
---
header: 
  seq: 9372
  stamp: 
    secs: 1638714665
    nsecs: 487676871
  frame_id: "imu_link"
orientation: 
  x: 0.0178879274106
  y: 0.00486158245974
  z: 0.961447107579
  w: 0.274364440837
orientation_covariance: [0.0, 0.0, 0.0, 0.0, 0.0, 0.0, 0.0, 0.0, 0.0]
angular_velocity: 
  x: 0.0
  y: 0.0
  z: 0.0
angular_velocity_covariance: [0.0, 0.0, 0.0, 0.0, 0.0, 0.0, 0.0, 0.0, 0.0]
linear_acceleration: 
  x: 0.30625
  y: 0.19619140625
  z: 9.78564453125
linear_acceleration_covariance: [0.0, 0.0, 0.0, 0.0, 0.0, 0.0, 0.0, 0.0, 0.0]
---
header: 
  seq: 9373
  stamp: 
    secs: 1638714665
    nsecs: 497661240
  frame_id: "imu_link"
orientation: 
  x: 0.0178879274106
  y: 0.00486158245974
  z: 0.961447107579
  w: 0.274364440837
orientation_covariance: [0.0, 0.0, 0.0, 0.0, 0.0, 0.0, 0.0, 0.0, 0.0]
angular_velocity: 
  x: 0.0
  y: 0.0
  z: 0.0
angular_velocity_covariance: [0.0, 0.0, 0.0, 0.0, 0.0, 0.0, 0.0, 0.0, 0.0]
linear_acceleration: 
  x: 0.30625
  y: 0.19619140625
  z: 9.78564453125
linear_acceleration_covariance: [0.0, 0.0, 0.0, 0.0, 0.0, 0.0, 0.0, 0.0, 0.0]
---
header: 
  seq: 9374
  stamp: 
    secs: 1638714665
    nsecs: 587747796
  frame_id: "imu_link"
orientation: 
  x: 0.0179337797407
  y: 0.00484927594544
  z: 0.96145965236
  w: 0.274317700762
orientation_covariance: [0.0, 0.0, 0.0, 0.0, 0.0, 0.0, 0.0, 0.0, 0.0]
angular_velocity: 
  x: 0.0
  y: 0.0
  z: 0.0
angular_velocity_covariance: [0.0, 0.0, 0.0, 0.0, 0.0, 0.0, 0.0, 0.0, 0.0]
linear_acceleration: 
  x: 0.30146484375
  y: 0.19140625
  z: 9.80478515625
linear_acceleration_covariance: [0.0, 0.0, 0.0, 0.0, 0.0, 0.0, 0.0, 0.0, 0.0]
---
header: 
  seq: 9375
  stamp: 
    secs: 1638714665
    nsecs: 597643460
  frame_id: "imu_link"
orientation: 
  x: 0.0179337797407
  y: 0.00484927594544
  z: 0.96145965236
  w: 0.274317700762
orientation_covariance: [0.0, 0.0, 0.0, 0.0, 0.0, 0.0, 0.0, 0.0, 0.0]
angular_velocity: 
  x: 0.0
  y: 0.0
  z: 0.0
angular_velocity_covariance: [0.0, 0.0, 0.0, 0.0, 0.0, 0.0, 0.0, 0.0, 0.0]
linear_acceleration: 
  x: 0.30146484375
  y: 0.19140625
  z: 9.80478515625
linear_acceleration_covariance: [0.0, 0.0, 0.0, 0.0, 0.0, 0.0, 0.0, 0.0, 0.0]
---
header: 
  seq: 9376
  stamp: 
    secs: 1638714665
    nsecs: 687608655
  frame_id: "imu_link"
orientation: 
  x: 0.0179337797407
  y: 0.00484927594544
  z: 0.96145965236
  w: 0.274317700762
orientation_covariance: [0.0, 0.0, 0.0, 0.0, 0.0, 0.0, 0.0, 0.0, 0.0]
angular_velocity: 
  x: 0.0
  y: 0.00106526443603
  z: 0.0
angular_velocity_covariance: [0.0, 0.0, 0.0, 0.0, 0.0, 0.0, 0.0, 0.0, 0.0]
linear_acceleration: 
  x: 0.2966796875
  y: 0.19140625
  z: 9.8095703125
linear_acceleration_covariance: [0.0, 0.0, 0.0, 0.0, 0.0, 0.0, 0.0, 0.0, 0.0]
---
header: 
  seq: 9377
  stamp: 
    secs: 1638714665
    nsecs: 697606271
  frame_id: "imu_link"
orientation: 
  x: 0.0179337797407
  y: 0.00484927594544
  z: 0.96145965236
  w: 0.274317700762
orientation_covariance: [0.0, 0.0, 0.0, 0.0, 0.0, 0.0, 0.0, 0.0, 0.0]
angular_velocity: 
  x: 0.0
  y: 0.00106526443603
  z: 0.0
angular_velocity_covariance: [0.0, 0.0, 0.0, 0.0, 0.0, 0.0, 0.0, 0.0, 0.0]
linear_acceleration: 
  x: 0.2966796875
  y: 0.19140625
  z: 9.8095703125
linear_acceleration_covariance: [0.0, 0.0, 0.0, 0.0, 0.0, 0.0, 0.0, 0.0, 0.0]
---
header: 
  seq: 9378
  stamp: 
    secs: 1638714665
    nsecs: 787612571
  frame_id: "imu_link"
orientation: 
  x: 0.0178879274106
  y: 0.00486158245974
  z: 0.961447107579
  w: 0.274364440837
orientation_covariance: [0.0, 0.0, 0.0, 0.0, 0.0, 0.0, 0.0, 0.0, 0.0]
angular_velocity: 
  x: 0.0
  y: 0.0
  z: 0.0
angular_velocity_covariance: [0.0, 0.0, 0.0, 0.0, 0.0, 0.0, 0.0, 0.0, 0.0]
linear_acceleration: 
  x: 0.31103515625
  y: 0.19140625
  z: 9.79521484375
linear_acceleration_covariance: [0.0, 0.0, 0.0, 0.0, 0.0, 0.0, 0.0, 0.0, 0.0]
---
header: 
  seq: 9379
  stamp: 
    secs: 1638714665
    nsecs: 797604517
  frame_id: "imu_link"
orientation: 
  x: 0.0178879274106
  y: 0.00486158245974
  z: 0.961447107579
  w: 0.274364440837
orientation_covariance: [0.0, 0.0, 0.0, 0.0, 0.0, 0.0, 0.0, 0.0, 0.0]
angular_velocity: 
  x: 0.0
  y: 0.0
  z: 0.0
angular_velocity_covariance: [0.0, 0.0, 0.0, 0.0, 0.0, 0.0, 0.0, 0.0, 0.0]
linear_acceleration: 
  x: 0.31103515625
  y: 0.19140625
  z: 9.79521484375
linear_acceleration_covariance: [0.0, 0.0, 0.0, 0.0, 0.0, 0.0, 0.0, 0.0, 0.0]
---
header: 
  seq: 9380
  stamp: 
    secs: 1638714665
    nsecs: 887631109
  frame_id: "imu_link"
orientation: 
  x: 0.0178881604392
  y: 0.00486072496237
  z: 0.961433954294
  w: 0.274410529316
orientation_covariance: [0.0, 0.0, 0.0, 0.0, 0.0, 0.0, 0.0, 0.0, 0.0]
angular_velocity: 
  x: 0.0
  y: 0.0
  z: 0.0
angular_velocity_covariance: [0.0, 0.0, 0.0, 0.0, 0.0, 0.0, 0.0, 0.0, 0.0]
linear_acceleration: 
  x: 0.31103515625
  y: 0.17705078125
  z: 9.8095703125
linear_acceleration_covariance: [0.0, 0.0, 0.0, 0.0, 0.0, 0.0, 0.0, 0.0, 0.0]
---
header: 
  seq: 9381
  stamp: 
    secs: 1638714665
    nsecs: 897646422
  frame_id: "imu_link"
orientation: 
  x: 0.0178881604392
  y: 0.00486072496237
  z: 0.961433954294
  w: 0.274410529316
orientation_covariance: [0.0, 0.0, 0.0, 0.0, 0.0, 0.0, 0.0, 0.0, 0.0]
angular_velocity: 
  x: 0.0
  y: 0.0
  z: 0.0
angular_velocity_covariance: [0.0, 0.0, 0.0, 0.0, 0.0, 0.0, 0.0, 0.0, 0.0]
linear_acceleration: 
  x: 0.31103515625
  y: 0.17705078125
  z: 9.8095703125
linear_acceleration_covariance: [0.0, 0.0, 0.0, 0.0, 0.0, 0.0, 0.0, 0.0, 0.0]
---
header: 
  seq: 9382
  stamp: 
    secs: 1638714665
    nsecs: 987618240
  frame_id: "imu_link"
orientation: 
  x: 0.0178883934268
  y: 0.00485986745383
  z: 0.961420798799
  w: 0.274456617163
orientation_covariance: [0.0, 0.0, 0.0, 0.0, 0.0, 0.0, 0.0, 0.0, 0.0]
angular_velocity: 
  x: 0.0
  y: 0.0
  z: 0.0
angular_velocity_covariance: [0.0, 0.0, 0.0, 0.0, 0.0, 0.0, 0.0, 0.0, 0.0]
linear_acceleration: 
  x: 0.3158203125
  y: 0.18662109375
  z: 9.8095703125
linear_acceleration_covariance: [0.0, 0.0, 0.0, 0.0, 0.0, 0.0, 0.0, 0.0, 0.0]
---
header: 
  seq: 9383
  stamp: 
    secs: 1638714665
    nsecs: 997650453
  frame_id: "imu_link"
orientation: 
  x: 0.0178883934268
  y: 0.00485986745383
  z: 0.961420798799
  w: 0.274456617163
orientation_covariance: [0.0, 0.0, 0.0, 0.0, 0.0, 0.0, 0.0, 0.0, 0.0]
angular_velocity: 
  x: 0.0
  y: 0.0
  z: 0.0
angular_velocity_covariance: [0.0, 0.0, 0.0, 0.0, 0.0, 0.0, 0.0, 0.0, 0.0]
linear_acceleration: 
  x: 0.3158203125
  y: 0.18662109375
  z: 9.8095703125
linear_acceleration_covariance: [0.0, 0.0, 0.0, 0.0, 0.0, 0.0, 0.0, 0.0, 0.0]
---
header: 
  seq: 9384
  stamp: 
    secs: 1638714666
    nsecs:  87666324
  frame_id: "imu_link"
orientation: 
  x: 0.0178883934268
  y: 0.00485986745383
  z: 0.961420798799
  w: 0.274456617163
orientation_covariance: [0.0, 0.0, 0.0, 0.0, 0.0, 0.0, 0.0, 0.0, 0.0]
angular_velocity: 
  x: 0.0
  y: 0.0
  z: 0.0
angular_velocity_covariance: [0.0, 0.0, 0.0, 0.0, 0.0, 0.0, 0.0, 0.0, 0.0]
linear_acceleration: 
  x: 0.31103515625
  y: 0.19619140625
  z: 9.80478515625
linear_acceleration_covariance: [0.0, 0.0, 0.0, 0.0, 0.0, 0.0, 0.0, 0.0, 0.0]
---
header: 
  seq: 9385
  stamp: 
    secs: 1638714666
    nsecs:  97646177
  frame_id: "imu_link"
orientation: 
  x: 0.0178883934268
  y: 0.00485986745383
  z: 0.961420798799
  w: 0.274456617163
orientation_covariance: [0.0, 0.0, 0.0, 0.0, 0.0, 0.0, 0.0, 0.0, 0.0]
angular_velocity: 
  x: 0.0
  y: 0.0
  z: 0.0
angular_velocity_covariance: [0.0, 0.0, 0.0, 0.0, 0.0, 0.0, 0.0, 0.0, 0.0]
linear_acceleration: 
  x: 0.31103515625
  y: 0.19619140625
  z: 9.80478515625
linear_acceleration_covariance: [0.0, 0.0, 0.0, 0.0, 0.0, 0.0, 0.0, 0.0, 0.0]
---
header: 
  seq: 9386
  stamp: 
    secs: 1638714666
    nsecs: 187607687
  frame_id: "imu_link"
orientation: 
  x: 0.0178420762605
  y: 0.00487389337001
  z: 0.961434558318
  w: 0.27441117971
orientation_covariance: [0.0, 0.0, 0.0, 0.0, 0.0, 0.0, 0.0, 0.0, 0.0]
angular_velocity: 
  x: 0.0
  y: 0.0
  z: 0.0
angular_velocity_covariance: [0.0, 0.0, 0.0, 0.0, 0.0, 0.0, 0.0, 0.0, 0.0]
linear_acceleration: 
  x: 0.30146484375
  y: 0.18662109375
  z: 9.819140625
linear_acceleration_covariance: [0.0, 0.0, 0.0, 0.0, 0.0, 0.0, 0.0, 0.0, 0.0]
---
header: 
  seq: 9387
  stamp: 
    secs: 1638714666
    nsecs: 197657628
  frame_id: "imu_link"
orientation: 
  x: 0.0178420762605
  y: 0.00487389337001
  z: 0.961434558318
  w: 0.27441117971
orientation_covariance: [0.0, 0.0, 0.0, 0.0, 0.0, 0.0, 0.0, 0.0, 0.0]
angular_velocity: 
  x: 0.0
  y: 0.0
  z: 0.0
angular_velocity_covariance: [0.0, 0.0, 0.0, 0.0, 0.0, 0.0, 0.0, 0.0, 0.0]
linear_acceleration: 
  x: 0.30146484375
  y: 0.18662109375
  z: 9.819140625
linear_acceleration_covariance: [0.0, 0.0, 0.0, 0.0, 0.0, 0.0, 0.0, 0.0, 0.0]
---
header: 
  seq: 9388
  stamp: 
    secs: 1638714666
    nsecs: 287629674
  frame_id: "imu_link"
orientation: 
  x: 0.0178423098794
  y: 0.00487303807059
  z: 0.961421402792
  w: 0.274457267587
orientation_covariance: [0.0, 0.0, 0.0, 0.0, 0.0, 0.0, 0.0, 0.0, 0.0]
angular_velocity: 
  x: 0.0
  y: 0.0
  z: 0.0
angular_velocity_covariance: [0.0, 0.0, 0.0, 0.0, 0.0, 0.0, 0.0, 0.0, 0.0]
linear_acceleration: 
  x: 0.30146484375
  y: 0.18662109375
  z: 9.80478515625
linear_acceleration_covariance: [0.0, 0.0, 0.0, 0.0, 0.0, 0.0, 0.0, 0.0, 0.0]
---
header: 
  seq: 9389
  stamp: 
    secs: 1638714666
    nsecs: 297776237
  frame_id: "imu_link"
orientation: 
  x: 0.0178423098794
  y: 0.00487303807059
  z: 0.961421402792
  w: 0.274457267587
orientation_covariance: [0.0, 0.0, 0.0, 0.0, 0.0, 0.0, 0.0, 0.0, 0.0]
angular_velocity: 
  x: 0.0
  y: 0.0
  z: 0.0
angular_velocity_covariance: [0.0, 0.0, 0.0, 0.0, 0.0, 0.0, 0.0, 0.0, 0.0]
linear_acceleration: 
  x: 0.30146484375
  y: 0.18662109375
  z: 9.80478515625
linear_acceleration_covariance: [0.0, 0.0, 0.0, 0.0, 0.0, 0.0, 0.0, 0.0, 0.0]
---
header: 
  seq: 9390
  stamp: 
    secs: 1638714666
    nsecs: 387612120
  frame_id: "imu_link"
orientation: 
  x: 0.0178425434572
  y: 0.00487218275998
  z: 0.961408245057
  w: 0.274503354833
orientation_covariance: [0.0, 0.0, 0.0, 0.0, 0.0, 0.0, 0.0, 0.0, 0.0]
angular_velocity: 
  x: 0.0
  y: 0.0
  z: 0.0
angular_velocity_covariance: [0.0, 0.0, 0.0, 0.0, 0.0, 0.0, 0.0, 0.0, 0.0]
linear_acceleration: 
  x: 0.31103515625
  y: 0.18662109375
  z: 9.81435546875
linear_acceleration_covariance: [0.0, 0.0, 0.0, 0.0, 0.0, 0.0, 0.0, 0.0, 0.0]
---
header: 
  seq: 9391
  stamp: 
    secs: 1638714666
    nsecs: 397691911
  frame_id: "imu_link"
orientation: 
  x: 0.0178425434572
  y: 0.00487218275998
  z: 0.961408245057
  w: 0.274503354833
orientation_covariance: [0.0, 0.0, 0.0, 0.0, 0.0, 0.0, 0.0, 0.0, 0.0]
angular_velocity: 
  x: 0.0
  y: 0.0
  z: 0.0
angular_velocity_covariance: [0.0, 0.0, 0.0, 0.0, 0.0, 0.0, 0.0, 0.0, 0.0]
linear_acceleration: 
  x: 0.31103515625
  y: 0.18662109375
  z: 9.81435546875
linear_acceleration_covariance: [0.0, 0.0, 0.0, 0.0, 0.0, 0.0, 0.0, 0.0, 0.0]
---
header: 
  seq: 9392
  stamp: 
    secs: 1638714666
    nsecs: 487616721
  frame_id: "imu_link"
orientation: 
  x: 0.0178425434572
  y: 0.00487218275998
  z: 0.961408245057
  w: 0.274503354833
orientation_covariance: [0.0, 0.0, 0.0, 0.0, 0.0, 0.0, 0.0, 0.0, 0.0]
angular_velocity: 
  x: 0.0
  y: 0.0
  z: 0.0
angular_velocity_covariance: [0.0, 0.0, 0.0, 0.0, 0.0, 0.0, 0.0, 0.0, 0.0]
linear_acceleration: 
  x: 0.31103515625
  y: 0.19619140625
  z: 9.80478515625
linear_acceleration_covariance: [0.0, 0.0, 0.0, 0.0, 0.0, 0.0, 0.0, 0.0, 0.0]
---
header: 
  seq: 9393
  stamp: 
    secs: 1638714666
    nsecs: 587614645
  frame_id: "imu_link"
orientation: 
  x: 0.017842776994
  y: 0.00487132743817
  z: 0.961395085113
  w: 0.274549441448
orientation_covariance: [0.0, 0.0, 0.0, 0.0, 0.0, 0.0, 0.0, 0.0, 0.0]
angular_velocity: 
  x: 0.0
  y: 0.0
  z: 0.0
angular_velocity_covariance: [0.0, 0.0, 0.0, 0.0, 0.0, 0.0, 0.0, 0.0, 0.0]
linear_acceleration: 
  x: 0.32060546875
  y: 0.17705078125
  z: 9.819140625
linear_acceleration_covariance: [0.0, 0.0, 0.0, 0.0, 0.0, 0.0, 0.0, 0.0, 0.0]
---
header: 
  seq: 9394
  stamp: 
    secs: 1638714666
    nsecs: 687652493
  frame_id: "imu_link"
orientation: 
  x: 0.017842776994
  y: 0.00487132743817
  z: 0.961395085113
  w: 0.274549441448
orientation_covariance: [0.0, 0.0, 0.0, 0.0, 0.0, 0.0, 0.0, 0.0, 0.0]
angular_velocity: 
  x: 0.0
  y: 0.0
  z: 0.0
angular_velocity_covariance: [0.0, 0.0, 0.0, 0.0, 0.0, 0.0, 0.0, 0.0, 0.0]
linear_acceleration: 
  x: 0.31103515625
  y: 0.20576171875
  z: 9.8095703125
linear_acceleration_covariance: [0.0, 0.0, 0.0, 0.0, 0.0, 0.0, 0.0, 0.0, 0.0]
---
header: 
  seq: 9395
  stamp: 
    secs: 1638714666
    nsecs: 787687036
  frame_id: "imu_link"
orientation: 
  x: 0.0177964605002
  y: 0.00488535557463
  z: 0.961408846809
  w: 0.274504004655
orientation_covariance: [0.0, 0.0, 0.0, 0.0, 0.0, 0.0, 0.0, 0.0, 0.0]
angular_velocity: 
  x: 0.0
  y: 0.0
  z: 0.0
angular_velocity_covariance: [0.0, 0.0, 0.0, 0.0, 0.0, 0.0, 0.0, 0.0, 0.0]
linear_acceleration: 
  x: 0.30625
  y: 0.18662109375
  z: 9.81435546875
linear_acceleration_covariance: [0.0, 0.0, 0.0, 0.0, 0.0, 0.0, 0.0, 0.0, 0.0]
---
header: 
  seq: 9396
  stamp: 
    secs: 1638714666
    nsecs: 887701216
  frame_id: "imu_link"
orientation: 
  x: 0.017796226291
  y: 0.00488620867616
  z: 0.961422004575
  w: 0.27445791738
orientation_covariance: [0.0, 0.0, 0.0, 0.0, 0.0, 0.0, 0.0, 0.0, 0.0]
angular_velocity: 
  x: 0.0
  y: 0.0
  z: 0.0
angular_velocity_covariance: [0.0, 0.0, 0.0, 0.0, 0.0, 0.0, 0.0, 0.0, 0.0]
linear_acceleration: 
  x: 0.3158203125
  y: 0.172265625
  z: 9.82392578125
linear_acceleration_covariance: [0.0, 0.0, 0.0, 0.0, 0.0, 0.0, 0.0, 0.0, 0.0]
---
header: 
  seq: 9397
  stamp: 
    secs: 1638714666
    nsecs: 987729162
  frame_id: "imu_link"
orientation: 
  x: 0.0177964605002
  y: 0.00488535557463
  z: 0.961408846809
  w: 0.274504004655
orientation_covariance: [0.0, 0.0, 0.0, 0.0, 0.0, 0.0, 0.0, 0.0, 0.0]
angular_velocity: 
  x: 0.0
  y: 0.0
  z: 0.0
angular_velocity_covariance: [0.0, 0.0, 0.0, 0.0, 0.0, 0.0, 0.0, 0.0, 0.0]
linear_acceleration: 
  x: 0.32060546875
  y: 0.19140625
  z: 9.8095703125
linear_acceleration_covariance: [0.0, 0.0, 0.0, 0.0, 0.0, 0.0, 0.0, 0.0, 0.0]
---
header: 
  seq: 9398
  stamp: 
    secs: 1638714667
    nsecs:  87642274
  frame_id: "imu_link"
orientation: 
  x: 0.0177508470613
  y: 0.00489682655941
  z: 0.96138312413
  w: 0.27459682656
orientation_covariance: [0.0, 0.0, 0.0, 0.0, 0.0, 0.0, 0.0, 0.0, 0.0]
angular_velocity: 
  x: 0.00106526443603
  y: 0.0117179087963
  z: 0.0
angular_velocity_covariance: [0.0, 0.0, 0.0, 0.0, 0.0, 0.0, 0.0, 0.0, 0.0]
linear_acceleration: 
  x: 0.325390625
  y: 0.19140625
  z: 9.780859375
linear_acceleration_covariance: [0.0, 0.0, 0.0, 0.0, 0.0, 0.0, 0.0, 0.0, 0.0]
---
header: 
  seq: 9399
  stamp: 
    secs: 1638714667
    nsecs: 187746642
  frame_id: "imu_link"
orientation: 
  x: 0.0177506123022
  y: 0.00489767747436
  z: 0.961396286345
  w: 0.274550740519
orientation_covariance: [0.0, 0.0, 0.0, 0.0, 0.0, 0.0, 0.0, 0.0, 0.0]
angular_velocity: 
  x: -0.00106526443603
  y: -0.0031957933081
  z: 0.0
angular_velocity_covariance: [0.0, 0.0, 0.0, 0.0, 0.0, 0.0, 0.0, 0.0, 0.0]
linear_acceleration: 
  x: 0.31103515625
  y: 0.19619140625
  z: 9.78564453125
linear_acceleration_covariance: [0.0, 0.0, 0.0, 0.0, 0.0, 0.0, 0.0, 0.0, 0.0]
---
header: 
  seq: 9400
  stamp: 
    secs: 1638714667
    nsecs: 277626095
  frame_id: "imu_link"
orientation: 
  x: 0.0177506123022
  y: 0.00489767747436
  z: 0.961396286345
  w: 0.274550740519
orientation_covariance: [0.0, 0.0, 0.0, 0.0, 0.0, 0.0, 0.0, 0.0, 0.0]
angular_velocity: 
  x: 0.0
  y: 0.00213052887206
  z: 0.0
angular_velocity_covariance: [0.0, 0.0, 0.0, 0.0, 0.0, 0.0, 0.0, 0.0, 0.0]
linear_acceleration: 
  x: 0.287109375
  y: 0.16748046875
  z: 9.83349609375
linear_acceleration_covariance: [0.0, 0.0, 0.0, 0.0, 0.0, 0.0, 0.0, 0.0, 0.0]
---
header: 
  seq: 9401
  stamp: 
    secs: 1638714667
    nsecs: 287702152
  frame_id: "imu_link"
orientation: 
  x: 0.0177964605002
  y: 0.00488535557463
  z: 0.961408846809
  w: 0.274504004655
orientation_covariance: [0.0, 0.0, 0.0, 0.0, 0.0, 0.0, 0.0, 0.0, 0.0]
angular_velocity: 
  x: 0.0
  y: 0.00213052887206
  z: 0.0
angular_velocity_covariance: [0.0, 0.0, 0.0, 0.0, 0.0, 0.0, 0.0, 0.0, 0.0]
linear_acceleration: 
  x: 0.287109375
  y: 0.16748046875
  z: 9.83349609375
linear_acceleration_covariance: [0.0, 0.0, 0.0, 0.0, 0.0, 0.0, 0.0, 0.0, 0.0]
---
header: 
  seq: 9402
  stamp: 
    secs: 1638714667
    nsecs: 377634204
  frame_id: "imu_link"
orientation: 
  x: 0.0177964605002
  y: 0.00488535557463
  z: 0.961408846809
  w: 0.274504004655
orientation_covariance: [0.0, 0.0, 0.0, 0.0, 0.0, 0.0, 0.0, 0.0, 0.0]
angular_velocity: 
  x: 0.0
  y: 0.00426105774413
  z: 0.0
angular_velocity_covariance: [0.0, 0.0, 0.0, 0.0, 0.0, 0.0, 0.0, 0.0, 0.0]
linear_acceleration: 
  x: 0.3158203125
  y: 0.20576171875
  z: 9.8
linear_acceleration_covariance: [0.0, 0.0, 0.0, 0.0, 0.0, 0.0, 0.0, 0.0, 0.0]
---
header: 
  seq: 9403
  stamp: 
    secs: 1638714667
    nsecs: 387635082
  frame_id: "imu_link"
orientation: 
  x: 0.0177503775023
  y: 0.00489852837805
  z: 0.961409446352
  w: 0.274504653846
orientation_covariance: [0.0, 0.0, 0.0, 0.0, 0.0, 0.0, 0.0, 0.0, 0.0]
angular_velocity: 
  x: 0.0
  y: 0.00426105774413
  z: 0.0
angular_velocity_covariance: [0.0, 0.0, 0.0, 0.0, 0.0, 0.0, 0.0, 0.0, 0.0]
linear_acceleration: 
  x: 0.3158203125
  y: 0.20576171875
  z: 9.8
linear_acceleration_covariance: [0.0, 0.0, 0.0, 0.0, 0.0, 0.0, 0.0, 0.0, 0.0]
---
header: 
  seq: 9404
  stamp: 
    secs: 1638714667
    nsecs: 477613570
  frame_id: "imu_link"
orientation: 
  x: 0.0177503775023
  y: 0.00489852837805
  z: 0.961409446352
  w: 0.274504653846
orientation_covariance: [0.0, 0.0, 0.0, 0.0, 0.0, 0.0, 0.0, 0.0, 0.0]
angular_velocity: 
  x: 0.0
  y: -0.00426105774413
  z: 0.0
angular_velocity_covariance: [0.0, 0.0, 0.0, 0.0, 0.0, 0.0, 0.0, 0.0, 0.0]
linear_acceleration: 
  x: 0.30146484375
  y: 0.18662109375
  z: 9.819140625
linear_acceleration_covariance: [0.0, 0.0, 0.0, 0.0, 0.0, 0.0, 0.0, 0.0, 0.0]
---
header: 
  seq: 9405
  stamp: 
    secs: 1638714667
    nsecs: 487658699
  frame_id: "imu_link"
orientation: 
  x: 0.017796226291
  y: 0.00488620867616
  z: 0.961422004575
  w: 0.27445791738
orientation_covariance: [0.0, 0.0, 0.0, 0.0, 0.0, 0.0, 0.0, 0.0, 0.0]
angular_velocity: 
  x: 0.0
  y: -0.00426105774413
  z: 0.0
angular_velocity_covariance: [0.0, 0.0, 0.0, 0.0, 0.0, 0.0, 0.0, 0.0, 0.0]
linear_acceleration: 
  x: 0.30146484375
  y: 0.18662109375
  z: 9.819140625
linear_acceleration_covariance: [0.0, 0.0, 0.0, 0.0, 0.0, 0.0, 0.0, 0.0, 0.0]
---
header: 
  seq: 9406
  stamp: 
    secs: 1638714667
    nsecs: 577606580
  frame_id: "imu_link"
orientation: 
  x: 0.017796226291
  y: 0.00488620867616
  z: 0.961422004575
  w: 0.27445791738
orientation_covariance: [0.0, 0.0, 0.0, 0.0, 0.0, 0.0, 0.0, 0.0, 0.0]
angular_velocity: 
  x: 0.0
  y: 0.00106526443603
  z: 0.0
angular_velocity_covariance: [0.0, 0.0, 0.0, 0.0, 0.0, 0.0, 0.0, 0.0, 0.0]
linear_acceleration: 
  x: 0.31103515625
  y: 0.172265625
  z: 9.81435546875
linear_acceleration_covariance: [0.0, 0.0, 0.0, 0.0, 0.0, 0.0, 0.0, 0.0, 0.0]
---
header: 
  seq: 9407
  stamp: 
    secs: 1638714667
    nsecs: 587622916
  frame_id: "imu_link"
orientation: 
  x: 0.0178416088999
  y: 0.00487560393525
  z: 0.961460862742
  w: 0.274319002066
orientation_covariance: [0.0, 0.0, 0.0, 0.0, 0.0, 0.0, 0.0, 0.0, 0.0]
angular_velocity: 
  x: 0.0
  y: 0.00106526443603
  z: 0.0
angular_velocity_covariance: [0.0, 0.0, 0.0, 0.0, 0.0, 0.0, 0.0, 0.0, 0.0]
linear_acceleration: 
  x: 0.31103515625
  y: 0.172265625
  z: 9.81435546875
linear_acceleration_covariance: [0.0, 0.0, 0.0, 0.0, 0.0, 0.0, 0.0, 0.0, 0.0]
---
header: 
  seq: 9408
  stamp: 
    secs: 1638714667
    nsecs: 677600609
  frame_id: "imu_link"
orientation: 
  x: 0.0178416088999
  y: 0.00487560393525
  z: 0.961460862742
  w: 0.274319002066
orientation_covariance: [0.0, 0.0, 0.0, 0.0, 0.0, 0.0, 0.0, 0.0, 0.0]
angular_velocity: 
  x: 0.0
  y: 0.0
  z: 0.0
angular_velocity_covariance: [0.0, 0.0, 0.0, 0.0, 0.0, 0.0, 0.0, 0.0, 0.0]
linear_acceleration: 
  x: 0.32060546875
  y: 0.2009765625
  z: 9.8
linear_acceleration_covariance: [0.0, 0.0, 0.0, 0.0, 0.0, 0.0, 0.0, 0.0, 0.0]
---
header: 
  seq: 9409
  stamp: 
    secs: 1638714667
    nsecs: 687674405
  frame_id: "imu_link"
orientation: 
  x: 0.0178416088999
  y: 0.00487560393525
  z: 0.961460862742
  w: 0.274319002066
orientation_covariance: [0.0, 0.0, 0.0, 0.0, 0.0, 0.0, 0.0, 0.0, 0.0]
angular_velocity: 
  x: 0.0
  y: 0.0
  z: 0.0
angular_velocity_covariance: [0.0, 0.0, 0.0, 0.0, 0.0, 0.0, 0.0, 0.0, 0.0]
linear_acceleration: 
  x: 0.32060546875
  y: 0.2009765625
  z: 9.8
linear_acceleration_covariance: [0.0, 0.0, 0.0, 0.0, 0.0, 0.0, 0.0, 0.0, 0.0]
---
header: 
  seq: 9410
  stamp: 
    secs: 1638714667
    nsecs: 777802956
  frame_id: "imu_link"
orientation: 
  x: 0.0178416088999
  y: 0.00487560393525
  z: 0.961460862742
  w: 0.274319002066
orientation_covariance: [0.0, 0.0, 0.0, 0.0, 0.0, 0.0, 0.0, 0.0, 0.0]
angular_velocity: 
  x: 0.0
  y: 0.0
  z: 0.0
angular_velocity_covariance: [0.0, 0.0, 0.0, 0.0, 0.0, 0.0, 0.0, 0.0, 0.0]
linear_acceleration: 
  x: 0.31103515625
  y: 0.18662109375
  z: 9.82392578125
linear_acceleration_covariance: [0.0, 0.0, 0.0, 0.0, 0.0, 0.0, 0.0, 0.0, 0.0]
---
header: 
  seq: 9411
  stamp: 
    secs: 1638714667
    nsecs: 787615429
  frame_id: "imu_link"
orientation: 
  x: 0.0178418426007
  y: 0.00487474865823
  z: 0.961447711634
  w: 0.274365091203
orientation_covariance: [0.0, 0.0, 0.0, 0.0, 0.0, 0.0, 0.0, 0.0, 0.0]
angular_velocity: 
  x: 0.0
  y: 0.0
  z: 0.0
angular_velocity_covariance: [0.0, 0.0, 0.0, 0.0, 0.0, 0.0, 0.0, 0.0, 0.0]
linear_acceleration: 
  x: 0.31103515625
  y: 0.18662109375
  z: 9.82392578125
linear_acceleration_covariance: [0.0, 0.0, 0.0, 0.0, 0.0, 0.0, 0.0, 0.0, 0.0]
---
header: 
  seq: 9412
  stamp: 
    secs: 1638714667
    nsecs: 877699053
  frame_id: "imu_link"
orientation: 
  x: 0.0178418426007
  y: 0.00487474865823
  z: 0.961447711634
  w: 0.274365091203
orientation_covariance: [0.0, 0.0, 0.0, 0.0, 0.0, 0.0, 0.0, 0.0, 0.0]
angular_velocity: 
  x: 0.0
  y: 0.0
  z: 0.0
angular_velocity_covariance: [0.0, 0.0, 0.0, 0.0, 0.0, 0.0, 0.0, 0.0, 0.0]
linear_acceleration: 
  x: 0.3158203125
  y: 0.19140625
  z: 9.8095703125
linear_acceleration_covariance: [0.0, 0.0, 0.0, 0.0, 0.0, 0.0, 0.0, 0.0, 0.0]
---
header: 
  seq: 9413
  stamp: 
    secs: 1638714667
    nsecs: 887631836
  frame_id: "imu_link"
orientation: 
  x: 0.0177955234179
  y: 0.00488876791336
  z: 0.961461464618
  w: 0.274319651772
orientation_covariance: [0.0, 0.0, 0.0, 0.0, 0.0, 0.0, 0.0, 0.0, 0.0]
angular_velocity: 
  x: 0.0
  y: 0.0
  z: 0.0
angular_velocity_covariance: [0.0, 0.0, 0.0, 0.0, 0.0, 0.0, 0.0, 0.0, 0.0]
linear_acceleration: 
  x: 0.3158203125
  y: 0.19140625
  z: 9.8095703125
linear_acceleration_covariance: [0.0, 0.0, 0.0, 0.0, 0.0, 0.0, 0.0, 0.0, 0.0]
---
header: 
  seq: 9414
  stamp: 
    secs: 1638714667
    nsecs: 977679520
  frame_id: "imu_link"
orientation: 
  x: 0.0177955234179
  y: 0.00488876791336
  z: 0.961461464618
  w: 0.274319651772
orientation_covariance: [0.0, 0.0, 0.0, 0.0, 0.0, 0.0, 0.0, 0.0, 0.0]
angular_velocity: 
  x: 0.0
  y: 0.0
  z: 0.0
angular_velocity_covariance: [0.0, 0.0, 0.0, 0.0, 0.0, 0.0, 0.0, 0.0, 0.0]
linear_acceleration: 
  x: 0.30146484375
  y: 0.172265625
  z: 9.82392578125
linear_acceleration_covariance: [0.0, 0.0, 0.0, 0.0, 0.0, 0.0, 0.0, 0.0, 0.0]
---
header: 
  seq: 9415
  stamp: 
    secs: 1638714667
    nsecs: 987715667
  frame_id: "imu_link"
orientation: 
  x: 0.017796226291
  y: 0.00488620867616
  z: 0.961422004575
  w: 0.27445791738
orientation_covariance: [0.0, 0.0, 0.0, 0.0, 0.0, 0.0, 0.0, 0.0, 0.0]
angular_velocity: 
  x: 0.0
  y: 0.0
  z: 0.0
angular_velocity_covariance: [0.0, 0.0, 0.0, 0.0, 0.0, 0.0, 0.0, 0.0, 0.0]
linear_acceleration: 
  x: 0.30146484375
  y: 0.172265625
  z: 9.82392578125
linear_acceleration_covariance: [0.0, 0.0, 0.0, 0.0, 0.0, 0.0, 0.0, 0.0, 0.0]
---
header: 
  seq: 9416
  stamp: 
    secs: 1638714668
    nsecs:  77645350
  frame_id: "imu_link"
orientation: 
  x: 0.017796226291
  y: 0.00488620867616
  z: 0.961422004575
  w: 0.27445791738
orientation_covariance: [0.0, 0.0, 0.0, 0.0, 0.0, 0.0, 0.0, 0.0, 0.0]
angular_velocity: 
  x: 0.0
  y: -0.0031957933081
  z: 0.0
angular_velocity_covariance: [0.0, 0.0, 0.0, 0.0, 0.0, 0.0, 0.0, 0.0, 0.0]
linear_acceleration: 
  x: 0.30625
  y: 0.19619140625
  z: 9.8287109375
linear_acceleration_covariance: [0.0, 0.0, 0.0, 0.0, 0.0, 0.0, 0.0, 0.0, 0.0]
---
header: 
  seq: 9417
  stamp: 
    secs: 1638714668
    nsecs:  87645916
  frame_id: "imu_link"
orientation: 
  x: 0.0178886263732
  y: 0.00485900993413
  z: 0.961407641096
  w: 0.27450270438
orientation_covariance: [0.0, 0.0, 0.0, 0.0, 0.0, 0.0, 0.0, 0.0, 0.0]
angular_velocity: 
  x: 0.0
  y: -0.0031957933081
  z: 0.0
angular_velocity_covariance: [0.0, 0.0, 0.0, 0.0, 0.0, 0.0, 0.0, 0.0, 0.0]
linear_acceleration: 
  x: 0.30625
  y: 0.19619140625
  z: 9.8287109375
linear_acceleration_covariance: [0.0, 0.0, 0.0, 0.0, 0.0, 0.0, 0.0, 0.0, 0.0]
---
header: 
  seq: 9418
  stamp: 
    secs: 1638714668
    nsecs: 177724504
  frame_id: "imu_link"
orientation: 
  x: 0.0178425434572
  y: 0.00487218275998
  z: 0.961408245057
  w: 0.274503354833
orientation_covariance: [0.0, 0.0, 0.0, 0.0, 0.0, 0.0, 0.0, 0.0, 0.0]
angular_velocity: 
  x: 0.0
  y: 0.00213052887206
  z: 0.0
angular_velocity_covariance: [0.0, 0.0, 0.0, 0.0, 0.0, 0.0, 0.0, 0.0, 0.0]
linear_acceleration: 
  x: 0.31103515625
  y: 0.17705078125
  z: 9.8287109375
linear_acceleration_covariance: [0.0, 0.0, 0.0, 0.0, 0.0, 0.0, 0.0, 0.0, 0.0]
---
header: 
  seq: 9419
  stamp: 
    secs: 1638714668
    nsecs: 187609871
  frame_id: "imu_link"
orientation: 
  x: 0.0178425434572
  y: 0.00487218275998
  z: 0.961408245057
  w: 0.274503354833
orientation_covariance: [0.0, 0.0, 0.0, 0.0, 0.0, 0.0, 0.0, 0.0, 0.0]
angular_velocity: 
  x: 0.0
  y: 0.00213052887206
  z: 0.0
angular_velocity_covariance: [0.0, 0.0, 0.0, 0.0, 0.0, 0.0, 0.0, 0.0, 0.0]
linear_acceleration: 
  x: 0.31103515625
  y: 0.17705078125
  z: 9.8287109375
linear_acceleration_covariance: [0.0, 0.0, 0.0, 0.0, 0.0, 0.0, 0.0, 0.0, 0.0]
---
header: 
  seq: 9420
  stamp: 
    secs: 1638714668
    nsecs: 277634328
  frame_id: "imu_link"
orientation: 
  x: 0.0178425434572
  y: 0.00487218275998
  z: 0.961408245057
  w: 0.274503354833
orientation_covariance: [0.0, 0.0, 0.0, 0.0, 0.0, 0.0, 0.0, 0.0, 0.0]
angular_velocity: 
  x: 0.0
  y: -0.00106526443603
  z: 0.0
angular_velocity_covariance: [0.0, 0.0, 0.0, 0.0, 0.0, 0.0, 0.0, 0.0, 0.0]
linear_acceleration: 
  x: 0.32060546875
  y: 0.2009765625
  z: 9.7904296875
linear_acceleration_covariance: [0.0, 0.0, 0.0, 0.0, 0.0, 0.0, 0.0, 0.0, 0.0]
---
header: 
  seq: 9421
  stamp: 
    secs: 1638714668
    nsecs: 287656477
  frame_id: "imu_link"
orientation: 
  x: 0.0178425434572
  y: 0.00487218275998
  z: 0.961408245057
  w: 0.274503354833
orientation_covariance: [0.0, 0.0, 0.0, 0.0, 0.0, 0.0, 0.0, 0.0, 0.0]
angular_velocity: 
  x: 0.0
  y: -0.00106526443603
  z: 0.0
angular_velocity_covariance: [0.0, 0.0, 0.0, 0.0, 0.0, 0.0, 0.0, 0.0, 0.0]
linear_acceleration: 
  x: 0.32060546875
  y: 0.2009765625
  z: 9.7904296875
linear_acceleration_covariance: [0.0, 0.0, 0.0, 0.0, 0.0, 0.0, 0.0, 0.0, 0.0]
---
header: 
  seq: 9422
  stamp: 
    secs: 1638714668
    nsecs: 377641190
  frame_id: "imu_link"
orientation: 
  x: 0.0178881604392
  y: 0.00486072496237
  z: 0.961433954294
  w: 0.274410529316
orientation_covariance: [0.0, 0.0, 0.0, 0.0, 0.0, 0.0, 0.0, 0.0, 0.0]
angular_velocity: 
  x: 0.0
  y: -0.0031957933081
  z: 0.0
angular_velocity_covariance: [0.0, 0.0, 0.0, 0.0, 0.0, 0.0, 0.0, 0.0, 0.0]
linear_acceleration: 
  x: 0.30625
  y: 0.1818359375
  z: 9.8287109375
linear_acceleration_covariance: [0.0, 0.0, 0.0, 0.0, 0.0, 0.0, 0.0, 0.0, 0.0]
---
header: 
  seq: 9423
  stamp: 
    secs: 1638714668
    nsecs: 387680978
  frame_id: "imu_link"
orientation: 
  x: 0.0178881604392
  y: 0.00486072496237
  z: 0.961433954294
  w: 0.274410529316
orientation_covariance: [0.0, 0.0, 0.0, 0.0, 0.0, 0.0, 0.0, 0.0, 0.0]
angular_velocity: 
  x: 0.0
  y: -0.0031957933081
  z: 0.0
angular_velocity_covariance: [0.0, 0.0, 0.0, 0.0, 0.0, 0.0, 0.0, 0.0, 0.0]
linear_acceleration: 
  x: 0.30625
  y: 0.1818359375
  z: 9.8287109375
linear_acceleration_covariance: [0.0, 0.0, 0.0, 0.0, 0.0, 0.0, 0.0, 0.0, 0.0]
---
header: 
  seq: 9424
  stamp: 
    secs: 1638714668
    nsecs: 477625801
  frame_id: "imu_link"
orientation: 
  x: 0.0178879274106
  y: 0.00486158245974
  z: 0.961447107579
  w: 0.274364440837
orientation_covariance: [0.0, 0.0, 0.0, 0.0, 0.0, 0.0, 0.0, 0.0, 0.0]
angular_velocity: 
  x: 0.0
  y: 0.0031957933081
  z: 0.0
angular_velocity_covariance: [0.0, 0.0, 0.0, 0.0, 0.0, 0.0, 0.0, 0.0, 0.0]
linear_acceleration: 
  x: 0.3158203125
  y: 0.19140625
  z: 9.81435546875
linear_acceleration_covariance: [0.0, 0.0, 0.0, 0.0, 0.0, 0.0, 0.0, 0.0, 0.0]
---
header: 
  seq: 9425
  stamp: 
    secs: 1638714668
    nsecs: 487674486
  frame_id: "imu_link"
orientation: 
  x: 0.0178879274106
  y: 0.00486158245974
  z: 0.961447107579
  w: 0.274364440837
orientation_covariance: [0.0, 0.0, 0.0, 0.0, 0.0, 0.0, 0.0, 0.0, 0.0]
angular_velocity: 
  x: 0.0
  y: 0.0031957933081
  z: 0.0
angular_velocity_covariance: [0.0, 0.0, 0.0, 0.0, 0.0, 0.0, 0.0, 0.0, 0.0]
linear_acceleration: 
  x: 0.3158203125
  y: 0.19140625
  z: 9.81435546875
linear_acceleration_covariance: [0.0, 0.0, 0.0, 0.0, 0.0, 0.0, 0.0, 0.0, 0.0]
---
header: 
  seq: 9426
  stamp: 
    secs: 1638714668
    nsecs: 577736391
  frame_id: "imu_link"
orientation: 
  x: 0.0178876943409
  y: 0.00486243994593
  z: 0.961460258655
  w: 0.274318351729
orientation_covariance: [0.0, 0.0, 0.0, 0.0, 0.0, 0.0, 0.0, 0.0, 0.0]
angular_velocity: 
  x: 0.0
  y: -0.00213052887206
  z: 0.0
angular_velocity_covariance: [0.0, 0.0, 0.0, 0.0, 0.0, 0.0, 0.0, 0.0, 0.0]
linear_acceleration: 
  x: 0.29189453125
  y: 0.2009765625
  z: 9.7904296875
linear_acceleration_covariance: [0.0, 0.0, 0.0, 0.0, 0.0, 0.0, 0.0, 0.0, 0.0]
---
header: 
  seq: 9427
  stamp: 
    secs: 1638714668
    nsecs: 587747863
  frame_id: "imu_link"
orientation: 
  x: 0.0178876943409
  y: 0.00486243994593
  z: 0.961460258655
  w: 0.274318351729
orientation_covariance: [0.0, 0.0, 0.0, 0.0, 0.0, 0.0, 0.0, 0.0, 0.0]
angular_velocity: 
  x: 0.0
  y: -0.00213052887206
  z: 0.0
angular_velocity_covariance: [0.0, 0.0, 0.0, 0.0, 0.0, 0.0, 0.0, 0.0, 0.0]
linear_acceleration: 
  x: 0.29189453125
  y: 0.2009765625
  z: 9.7904296875
linear_acceleration_covariance: [0.0, 0.0, 0.0, 0.0, 0.0, 0.0, 0.0, 0.0, 0.0]
---
header: 
  seq: 9428
  stamp: 
    secs: 1638714668
    nsecs: 677630912
  frame_id: "imu_link"
orientation: 
  x: 0.0178876943409
  y: 0.00486243994593
  z: 0.961460258655
  w: 0.274318351729
orientation_covariance: [0.0, 0.0, 0.0, 0.0, 0.0, 0.0, 0.0, 0.0, 0.0]
angular_velocity: 
  x: 0.0
  y: -0.00213052887206
  z: 0.0
angular_velocity_covariance: [0.0, 0.0, 0.0, 0.0, 0.0, 0.0, 0.0, 0.0, 0.0]
linear_acceleration: 
  x: 0.2966796875
  y: 0.18662109375
  z: 9.79521484375
linear_acceleration_covariance: [0.0, 0.0, 0.0, 0.0, 0.0, 0.0, 0.0, 0.0, 0.0]
---
header: 
  seq: 9429
  stamp: 
    secs: 1638714668
    nsecs: 687623765
  frame_id: "imu_link"
orientation: 
  x: 0.0178876943409
  y: 0.00486243994593
  z: 0.961460258655
  w: 0.274318351729
orientation_covariance: [0.0, 0.0, 0.0, 0.0, 0.0, 0.0, 0.0, 0.0, 0.0]
angular_velocity: 
  x: 0.0
  y: -0.00213052887206
  z: 0.0
angular_velocity_covariance: [0.0, 0.0, 0.0, 0.0, 0.0, 0.0, 0.0, 0.0, 0.0]
linear_acceleration: 
  x: 0.2966796875
  y: 0.18662109375
  z: 9.79521484375
linear_acceleration_covariance: [0.0, 0.0, 0.0, 0.0, 0.0, 0.0, 0.0, 0.0, 0.0]
---
header: 
  seq: 9430
  stamp: 
    secs: 1638714668
    nsecs: 777603944
  frame_id: "imu_link"
orientation: 
  x: 0.0178876943409
  y: 0.00486243994593
  z: 0.961460258655
  w: 0.274318351729
orientation_covariance: [0.0, 0.0, 0.0, 0.0, 0.0, 0.0, 0.0, 0.0, 0.0]
angular_velocity: 
  x: 0.0
  y: 0.00106526443603
  z: 0.0
angular_velocity_covariance: [0.0, 0.0, 0.0, 0.0, 0.0, 0.0, 0.0, 0.0, 0.0]
linear_acceleration: 
  x: 0.30146484375
  y: 0.17705078125
  z: 9.82392578125
linear_acceleration_covariance: [0.0, 0.0, 0.0, 0.0, 0.0, 0.0, 0.0, 0.0, 0.0]
---
header: 
  seq: 9431
  stamp: 
    secs: 1638714668
    nsecs: 787644178
  frame_id: "imu_link"
orientation: 
  x: 0.0178876943409
  y: 0.00486243994593
  z: 0.961460258655
  w: 0.274318351729
orientation_covariance: [0.0, 0.0, 0.0, 0.0, 0.0, 0.0, 0.0, 0.0, 0.0]
angular_velocity: 
  x: 0.0
  y: 0.00106526443603
  z: 0.0
angular_velocity_covariance: [0.0, 0.0, 0.0, 0.0, 0.0, 0.0, 0.0, 0.0, 0.0]
linear_acceleration: 
  x: 0.30146484375
  y: 0.17705078125
  z: 9.82392578125
linear_acceleration_covariance: [0.0, 0.0, 0.0, 0.0, 0.0, 0.0, 0.0, 0.0, 0.0]
---
header: 
  seq: 9432
  stamp: 
    secs: 1638714668
    nsecs: 877650019
  frame_id: "imu_link"
orientation: 
  x: 0.0178743134476
  y: 0.00481720736116
  z: 0.961473639549
  w: 0.274273119144
orientation_covariance: [0.0, 0.0, 0.0, 0.0, 0.0, 0.0, 0.0, 0.0, 0.0]
angular_velocity: 
  x: 0.0
  y: 0.0
  z: 0.0
angular_velocity_covariance: [0.0, 0.0, 0.0, 0.0, 0.0, 0.0, 0.0, 0.0, 0.0]
linear_acceleration: 
  x: 0.3158203125
  y: 0.19619140625
  z: 9.80478515625
linear_acceleration_covariance: [0.0, 0.0, 0.0, 0.0, 0.0, 0.0, 0.0, 0.0, 0.0]
---
header: 
  seq: 9433
  stamp: 
    secs: 1638714668
    nsecs: 887624508
  frame_id: "imu_link"
orientation: 
  x: 0.0178743134476
  y: 0.00481720736116
  z: 0.961473639549
  w: 0.274273119144
orientation_covariance: [0.0, 0.0, 0.0, 0.0, 0.0, 0.0, 0.0, 0.0, 0.0]
angular_velocity: 
  x: 0.0
  y: 0.0
  z: 0.0
angular_velocity_covariance: [0.0, 0.0, 0.0, 0.0, 0.0, 0.0, 0.0, 0.0, 0.0]
linear_acceleration: 
  x: 0.3158203125
  y: 0.19619140625
  z: 9.80478515625
linear_acceleration_covariance: [0.0, 0.0, 0.0, 0.0, 0.0, 0.0, 0.0, 0.0, 0.0]
---
header: 
  seq: 9434
  stamp: 
    secs: 1638714668
    nsecs: 977603449
  frame_id: "imu_link"
orientation: 
  x: 0.01788746123
  y: 0.00486329742095
  z: 0.961473407522
  w: 0.27427226199
orientation_covariance: [0.0, 0.0, 0.0, 0.0, 0.0, 0.0, 0.0, 0.0, 0.0]
angular_velocity: 
  x: 0.0
  y: -0.00106526443603
  z: 0.0
angular_velocity_covariance: [0.0, 0.0, 0.0, 0.0, 0.0, 0.0, 0.0, 0.0, 0.0]
linear_acceleration: 
  x: 0.30625
  y: 0.1818359375
  z: 9.8095703125
linear_acceleration_covariance: [0.0, 0.0, 0.0, 0.0, 0.0, 0.0, 0.0, 0.0, 0.0]
---
header: 
  seq: 9435
  stamp: 
    secs: 1638714668
    nsecs: 987663006
  frame_id: "imu_link"
orientation: 
  x: 0.01788746123
  y: 0.00486329742095
  z: 0.961473407522
  w: 0.27427226199
orientation_covariance: [0.0, 0.0, 0.0, 0.0, 0.0, 0.0, 0.0, 0.0, 0.0]
angular_velocity: 
  x: 0.0
  y: -0.00106526443603
  z: 0.0
angular_velocity_covariance: [0.0, 0.0, 0.0, 0.0, 0.0, 0.0, 0.0, 0.0, 0.0]
linear_acceleration: 
  x: 0.30625
  y: 0.1818359375
  z: 9.8095703125
linear_acceleration_covariance: [0.0, 0.0, 0.0, 0.0, 0.0, 0.0, 0.0, 0.0, 0.0]
---
header: 
  seq: 9436
  stamp: 
    secs: 1638714669
    nsecs:  77763058
  frame_id: "imu_link"
orientation: 
  x: 0.0178876943409
  y: 0.00486243994593
  z: 0.961460258655
  w: 0.274318351729
orientation_covariance: [0.0, 0.0, 0.0, 0.0, 0.0, 0.0, 0.0, 0.0, 0.0]
angular_velocity: 
  x: 0.0
  y: 0.0
  z: 0.0
angular_velocity_covariance: [0.0, 0.0, 0.0, 0.0, 0.0, 0.0, 0.0, 0.0, 0.0]
linear_acceleration: 
  x: 0.30146484375
  y: 0.18662109375
  z: 9.819140625
linear_acceleration_covariance: [0.0, 0.0, 0.0, 0.0, 0.0, 0.0, 0.0, 0.0, 0.0]
---
header: 
  seq: 9437
  stamp: 
    secs: 1638714669
    nsecs:  87660650
  frame_id: "imu_link"
orientation: 
  x: 0.0178876943409
  y: 0.00486243994593
  z: 0.961460258655
  w: 0.274318351729
orientation_covariance: [0.0, 0.0, 0.0, 0.0, 0.0, 0.0, 0.0, 0.0, 0.0]
angular_velocity: 
  x: 0.0
  y: 0.0
  z: 0.0
angular_velocity_covariance: [0.0, 0.0, 0.0, 0.0, 0.0, 0.0, 0.0, 0.0, 0.0]
linear_acceleration: 
  x: 0.30146484375
  y: 0.18662109375
  z: 9.819140625
linear_acceleration_covariance: [0.0, 0.0, 0.0, 0.0, 0.0, 0.0, 0.0, 0.0, 0.0]
---
header: 
  seq: 9438
  stamp: 
    secs: 1638714669
    nsecs: 177646596
  frame_id: "imu_link"
orientation: 
  x: 0.0178879274106
  y: 0.00486158245974
  z: 0.961447107579
  w: 0.274364440837
orientation_covariance: [0.0, 0.0, 0.0, 0.0, 0.0, 0.0, 0.0, 0.0, 0.0]
angular_velocity: 
  x: 0.0
  y: -0.00106526443603
  z: 0.0
angular_velocity_covariance: [0.0, 0.0, 0.0, 0.0, 0.0, 0.0, 0.0, 0.0, 0.0]
linear_acceleration: 
  x: 0.30625
  y: 0.2009765625
  z: 9.8095703125
linear_acceleration_covariance: [0.0, 0.0, 0.0, 0.0, 0.0, 0.0, 0.0, 0.0, 0.0]
---
header: 
  seq: 9439
  stamp: 
    secs: 1638714669
    nsecs: 187661004
  frame_id: "imu_link"
orientation: 
  x: 0.0178879274106
  y: 0.00486158245974
  z: 0.961447107579
  w: 0.274364440837
orientation_covariance: [0.0, 0.0, 0.0, 0.0, 0.0, 0.0, 0.0, 0.0, 0.0]
angular_velocity: 
  x: 0.0
  y: -0.00106526443603
  z: 0.0
angular_velocity_covariance: [0.0, 0.0, 0.0, 0.0, 0.0, 0.0, 0.0, 0.0, 0.0]
linear_acceleration: 
  x: 0.30625
  y: 0.2009765625
  z: 9.8095703125
linear_acceleration_covariance: [0.0, 0.0, 0.0, 0.0, 0.0, 0.0, 0.0, 0.0, 0.0]
---
header: 
  seq: 9440
  stamp: 
    secs: 1638714669
    nsecs: 277788326
  frame_id: "imu_link"
orientation: 
  x: 0.0178881604392
  y: 0.00486072496237
  z: 0.961433954294
  w: 0.274410529316
orientation_covariance: [0.0, 0.0, 0.0, 0.0, 0.0, 0.0, 0.0, 0.0, 0.0]
angular_velocity: 
  x: 0.0
  y: 0.0
  z: 0.0
angular_velocity_covariance: [0.0, 0.0, 0.0, 0.0, 0.0, 0.0, 0.0, 0.0, 0.0]
linear_acceleration: 
  x: 0.30625
  y: 0.18662109375
  z: 9.81435546875
linear_acceleration_covariance: [0.0, 0.0, 0.0, 0.0, 0.0, 0.0, 0.0, 0.0, 0.0]
---
header: 
  seq: 9441
  stamp: 
    secs: 1638714669
    nsecs: 287641060
  frame_id: "imu_link"
orientation: 
  x: 0.0178881604392
  y: 0.00486072496237
  z: 0.961433954294
  w: 0.274410529316
orientation_covariance: [0.0, 0.0, 0.0, 0.0, 0.0, 0.0, 0.0, 0.0, 0.0]
angular_velocity: 
  x: 0.0
  y: 0.0
  z: 0.0
angular_velocity_covariance: [0.0, 0.0, 0.0, 0.0, 0.0, 0.0, 0.0, 0.0, 0.0]
linear_acceleration: 
  x: 0.30625
  y: 0.18662109375
  z: 9.81435546875
linear_acceleration_covariance: [0.0, 0.0, 0.0, 0.0, 0.0, 0.0, 0.0, 0.0, 0.0]
---
header: 
  seq: 9442
  stamp: 
    secs: 1638714669
    nsecs: 377716785
  frame_id: "imu_link"
orientation: 
  x: 0.0178420762605
  y: 0.00487389337001
  z: 0.961434558318
  w: 0.27441117971
orientation_covariance: [0.0, 0.0, 0.0, 0.0, 0.0, 0.0, 0.0, 0.0, 0.0]
angular_velocity: 
  x: 0.0
  y: -0.00106526443603
  z: 0.0
angular_velocity_covariance: [0.0, 0.0, 0.0, 0.0, 0.0, 0.0, 0.0, 0.0, 0.0]
linear_acceleration: 
  x: 0.30146484375
  y: 0.1818359375
  z: 9.8095703125
linear_acceleration_covariance: [0.0, 0.0, 0.0, 0.0, 0.0, 0.0, 0.0, 0.0, 0.0]
---
header: 
  seq: 9443
  stamp: 
    secs: 1638714669
    nsecs: 387657869
  frame_id: "imu_link"
orientation: 
  x: 0.0178420762605
  y: 0.00487389337001
  z: 0.961434558318
  w: 0.27441117971
